{"countries":[{"name":"Afghanistan","wiki":"Afghanistan","capital":[34.5281,69.1723],"locations":[{"name":"Band-e Amir National Park","lat":34.8167,"lng":67.0167,"type":"nature"},{"name":"Kandahar","lat":31.6133,"lng":65.7073,"type":"former"},{"name":"Mazar-i-Sharif","lat":36.7069,"lng":67.1124,"type":"city"},{"name":"Herat","lat":34.3482,"lng":62.2041,"type":"city"},{"name":"Band-e Amir National Park","lat":34.8167,"lng":67.0167,"type":"nature"}]},{"name":"Albania","wiki":"Albania","capital":[41.3317,19.8319],"locations":[{"name":"Valbona Valley National Park","lat":41.8767,"lng":20.1867,"type":"nature"},{"name":"Durr\u00ebs","lat":41.3246,"lng":19.4565,"type":"former"},{"name":"Gjirokast\u00ebr","lat":40.0758,"lng":20.1389,"type":"unicode"},{"name":"Berat","lat":40.7058,"lng":19.9522,"type":"unicode"},{"name":"Shkod\u00ebr","lat":42.0683,"lng":19.5126,"type":"city"},{"name":"Valbona Valley National Park","lat":41.8767,"lng":20.1867,"type":"nature"}]},{"name":"Algeria","wiki":"Algeria","capital":[36.7372,3.0865],"locations":[{"name":"Tassili n'Ajjer","lat":24.8,"lng":9.5,"type":"nature"},{"name":"Oran","lat":35.6969,"lng":-0.6331,"type":"city"},{"name":"Constantine","lat":36.365,"lng":6.6147,"type":"city"},{"name":"Timgad","lat":35.4869,"lng":6.468,"type":"unicode"},{"name":"Tipasa","lat":36.59,"lng":2.4478,"type":"unicode"},{"name":"Tassili n'Ajjer","lat":24.8,"lng":9.5,"type":"nature"}]},{"name":"Andorra","wiki":"Andorra","capital":[42.5063,1.5218],"locations":[{"name":"Escaldes-Engordany","lat":42.5063,"lng":1.5395,"type":"city"}]},{"name":"Angola","wiki":"Angola","capital":[-8.839,13.2894],"locations":[{"name":"Iona National Park","lat":-17.05,"lng":12.27,"type":"nature"},{"name":"Lubango","lat":-14.9177,"lng":13.492,"type":"city"},{"name":"Huambo","lat":-12.7758,"lng":15.7392,"type":"city"},{"name":"Lobito","lat":-12.3647,"lng":13.5459,"type":"city"},{"name":"Iona National Park","lat":-17.05,"lng":12.27,"type":"nature"}]},{"name":"Antigua and Barbuda","wiki":"Antigua_and_Barbuda","capital":[17.1274,-61.8468],"locations":[]},{"name":"Argentina","wiki":"Argentina","capital":[-34.6037,-58.3816],"locations":[{"name":"Los Glaciares National Park","lat":-49.8,"lng":-73.0,"type":"nature"},{"name":"C\u00f3rdoba","lat":-31.4201,"lng":-64.1888,"type":"city"},{"name":"Rosario","lat":-32.9442,"lng":-60.6505,"type":"city"},{"name":"Mendoza","lat":-32.8895,"lng":-68.8458,"type":"city"},{"name":"La Plata","lat":-34.9215,"lng":-57.9545,"type":"city"},{"name":"Los Glaciares National Park","lat":-49.8,"lng":-73.0,"type":"nature"}]},{"name":"Armenia","wiki":"Armenia","capital":[40.1872,44.5152],"locations":[{"name":"Khosrov Forest State Reserve","lat":39.75,"lng":44.5,"type":"nature"},{"name":"Gyumri","lat":40.7942,"lng":43.8453,"type":"city"},{"name":"Vanadzor","lat":40.8128,"lng":44.4879,"type":"city"},{"name":"Khosrov Forest State Reserve","lat":39.75,"lng":44.5,"type":"nature"}]},{"name":"Australia","wiki":"Australia","capital":[-35.2835,149.1281],"locations":[{"name":"Great Barrier Reef Marine Park","lat":-18.2871,"lng":147.6992,"type":"nature"},{"name":"Sydney","lat":-33.8688,"lng":151.2093,"type":"city"},{"name":"Melbourne","lat":-37.8136,"lng":144.9631,"type":"city"},{"name":"Brisbane","lat":-27.4698,"lng":153.0251,"type":"city"},{"name":"Perth","lat":-31.9505,"lng":115.8605,"type":"city"},{"name":"Great Barrier Reef Marine Park","lat":-18.2871,"lng":147.6992,"type":"nature"}]},{"name":"Austria","wiki":"Austria","capital":[48.2082,16.3738],"locations":[{"name":"Hohe Tauern National Park","lat":47.5,"lng":12.5,"type":"nature"},{"name":"Graz","lat":47.0707,"lng":15.4395,"type":"city"},{"name":"Innsbruck","lat":47.2692,"lng":11.4041,"type":"city"},{"name":"Salzburg","lat":47.8095,"lng":13.055,"type":"unicode"},{"name":"Hohe Tauern National Park","lat":47.5,"lng":12.5,"type":"nature"}]},{"name":"Azerbaijan","wiki":"Azerbaijan","capital":[40.4093,49.8671],"locations":[{"name":"Gobustan National Park","lat":40.35,"lng":49.5,"type":"nature"},{"name":"Ganja","lat":40.6828,"lng":46.3606,"type":"city"},{"name":"Walled City of Baku","lat":40.3667,"lng":49.8333,"type":"unicode"},{"name":"Gobustan National Park","lat":40.35,"lng":49.5,"type":"nature"}]},{"name":"Bahamas","wiki":"The_Bahamas","capital":[25.048,-77.3554],"locations":[{"name":"Exuma Cays Land and Sea Park","lat":24.5,"lng":-76.3,"type":"nature"},{"name":"Exuma Cays Land and Sea Park","lat":24.5,"lng":-76.3,"type":"nature"}]},{"name":"Bahrain","wiki":"Bahrain","capital":[26.2154,50.5832],"locations":[{"name":"Qal'at al-Bahrain","lat":26.2333,"lng":50.5167,"type":"unicode"}]},{"name":"Bangladesh","wiki":"Bangladesh","capital":[23.8103,90.4125],"locations":[{"name":"Sundarbans National Park","lat":21.9,"lng":89.2,"type":"nature"},{"name":"Chittagong","lat":22.3569,"lng":91.7832,"type":"city"},{"name":"Sylhet","lat":24.8949,"lng":91.8687,"type":"city"},{"name":"Rajshahi","lat":24.3745,"lng":88.6042,"type":"city"},{"name":"Sundarbans National Park","lat":21.9,"lng":89.2,"type":"nature"}]},{"name":"Barbados","wiki":"Barbados","capital":[13.0969,-59.6145],"locations":[]},{"name":"Belarus","wiki":"Belarus","capital":[53.9006,27.559],"locations":[{"name":"Belovezhskaya Pushcha","lat":52.45,"lng":23.85,"type":"nature"},{"name":"Brest","lat":52.0976,"lng":23.7341,"type":"city"},{"name":"Grodno","lat":53.6884,"lng":23.8258,"type":"city"},{"name":"Mir Castle Complex","lat":53.4519,"lng":26.4728,"type":"unicode"},{"name":"Belovezhskaya Pushcha","lat":52.45,"lng":23.85,"type":"nature"}]},{"name":"Belgium","wiki":"Belgium","capital":[50.8503,4.3517],"locations":[{"name":"High Fens-Eifel","lat":50.5,"lng":6.0,"type":"nature"},{"name":"Ghent","lat":51.0543,"lng":3.7174,"type":"city"},{"name":"Antwerp","lat":51.2194,"lng":4.4025,"type":"city"},{"name":"Bruges","lat":51.2093,"lng":3.2247,"type":"unicode"},{"name":"High Fens-Eifel","lat":50.5,"lng":6.0,"type":"nature"}]},{"name":"Benin","wiki":"Benin","capital":[6.3676,2.4252],"locations":[{"name":"W National Park","lat":11.5,"lng":2.3,"type":"nature"},{"name":"Cotonou","lat":6.3654,"lng":2.4183,"type":"city"},{"name":"Abomey","lat":7.1841,"lng":1.9888,"type":"unicode"},{"name":"W National Park","lat":11.5,"lng":2.3,"type":"nature"}]},{"name":"Bhutan","wiki":"Bhutan","capital":[27.4728,89.639],"locations":[{"name":"Jigme Dorji National Park","lat":27.9,"lng":89.5,"type":"nature"},{"name":"Paro","lat":27.4287,"lng":89.4164,"type":"city"},{"name":"Punakha","lat":27.5906,"lng":89.8678,"type":"former"},{"name":"Jigme Dorji National Park","lat":27.9,"lng":89.5,"type":"nature"}]},{"name":"Bolivia","wiki":"Bolivia","capital":[-16.5,-68.1501],"locations":[{"name":"Madidi National Park","lat":-14.2,"lng":-67.5,"type":"nature"},{"name":"Sucre","lat":-19.0478,"lng":-65.2592,"type":"former"},{"name":"Santa Cruz","lat":-17.8146,"lng":-63.1561,"type":"city"},{"name":"Cochabamba","lat":-17.3895,"lng":-66.1577,"type":"city"},{"name":"Madidi National Park","lat":-14.2,"lng":-67.5,"type":"nature"}]},{"name":"Bosnia and Herzegovina","wiki":"Bosnia_and_Herzegovina","capital":[43.8486,18.3564],"locations":[{"name":"Sutjeska National Park","lat":43.6,"lng":19.1,"type":"nature"},{"name":"Mostar","lat":43.3438,"lng":17.8078,"type":"unicode"},{"name":"Banja Luka","lat":44.7722,"lng":17.191,"type":"city"},{"name":"Sutjeska National Park","lat":43.6,"lng":19.1,"type":"nature"}]},{"name":"Botswana","wiki":"Botswana","capital":[-24.6282,25.9231],"locations":[{"name":"Okavango Delta","lat":-19.2825,"lng":22.8575,"type":"nature"},{"name":"Francistown","lat":-21.1658,"lng":27.5103,"type":"city"},{"name":"Okavango Delta","lat":-19.2825,"lng":22.8575,"type":"nature"}]},{"name":"Brazil","wiki":"Brazil","capital":[-15.7795,-47.9297],"locations":[{"name":"Amazon Rainforest","lat":-3.0,"lng":-60.0,"type":"nature"},{"name":"Rio de Janeiro","lat":-22.9068,"lng":-43.1729,"type":"former"},{"name":"S\u00e3o Paulo","lat":-23.5558,"lng":-46.6396,"type":"city"},{"name":"Salvador","lat":-12.9714,"lng":-38.5014,"type":"city"},{"name":"Belo Horizonte","lat":-19.9167,"lng":-43.9345,"type":"city"},{"name":"Amazon Rainforest","lat":-3.0,"lng":-60.0,"type":"nature"}]},{"name":"Brunei","wiki":"Brunei","capital":[4.9031,114.9398],"locations":[{"name":"Temburong National Park","lat":4.55,"lng":115.15,"type":"nature"},{"name":"Temburong National Park","lat":4.55,"lng":115.15,"type":"nature"}]},{"name":"Bulgaria","wiki":"Bulgaria","capital":[42.6977,23.3219],"locations":[{"name":"Rila National Park","lat":42.2,"lng":23.6,"type":"nature"},{"name":"Plovdiv","lat":42.1354,"lng":24.7453,"type":"former"},{"name":"Varna","lat":43.2141,"lng":27.9147,"type":"city"},{"name":"Burgas","lat":42.5047,"lng":27.4632,"type":"city"},{"name":"Rila National Park","lat":42.2,"lng":23.6,"type":"nature"}]},{"name":"Burkina Faso","wiki":"Burkina_Faso","capital":[12.3714,-1.5197],"locations":[{"name":"W National Park","lat":11.5,"lng":2.3,"type":"nature"},{"name":"Bobo-Dioulasso","lat":11.1771,"lng":-4.2979,"type":"city"},{"name":"W National Park","lat":11.5,"lng":2.3,"type":"nature"}]},{"name":"Burundi","wiki":"Burundi","capital":[-3.4271,29.9249],"locations":[{"name":"Rusizi National Park","lat":-2.5,"lng":29.25,"type":"nature"},{"name":"Bujumbura","lat":-3.3818,"lng":29.3622,"type":"former"},{"name":"Rusizi National Park","lat":-2.5,"lng":29.25,"type":"nature"}]},{"name":"Cabo Verde","wiki":"Cape_Verde","capital":[14.933,-23.5133],"locations":[{"name":"Fogo National Park","lat":15.35,"lng":-24.35,"type":"nature"},{"name":"Cidade Velha","lat":14.9167,"lng":-23.6,"type":"unicode"},{"name":"Fogo National Park","lat":15.35,"lng":-24.35,"type":"nature"}]},{"name":"Cambodia","wiki":"Cambodia","capital":[11.5625,104.916],"locations":[{"name":"Angkor National Park","lat":13.4125,"lng":103.867,"type":"nature"},{"name":"Siem Reap","lat":13.3671,"lng":103.8448,"type":"city"},{"name":"Battambang","lat":13.0957,"lng":103.2022,"type":"city"},{"name":"Angkor","lat":13.4125,"lng":103.867,"type":"unicode"},{"name":"Angkor National Park","lat":13.4125,"lng":103.867,"type":"nature"}]},{"name":"Cameroon","wiki":"Cameroon","capital":[3.8667,11.5167],"locations":[{"name":"Mount Cameroon","lat":4.2,"lng":9.17,"type":"nature"},{"name":"Douala","lat":4.0511,"lng":9.7679,"type":"city"},{"name":"Mount Cameroon","lat":4.2,"lng":9.17,"type":"nature"}]},{"name":"Canada","wiki":"Canada","capital":[45.4215,-75.6972],"locations":[{"name":"Banff National Park","lat":51.5,"lng":-115.5,"type":"nature"},{"name":"Toronto","lat":43.6532,"lng":-79.3832,"type":"city"},{"name":"Montreal","lat":45.5017,"lng":-73.5673,"type":"city"},{"name":"Vancouver","lat":49.2827,"lng":-123.1207,"type":"city"},{"name":"Calgary","lat":51.0447,"lng":-114.0719,"type":"city"},{"name":"Banff National Park","lat":51.5,"lng":-115.5,"type":"nature"}]},{"name":"Central African Republic","wiki":"Central_African_Republic","capital":[4.3612,18.555],"locations":[{"name":"Dzanga-Sangha","lat":2.25,"lng":16.3,"type":"nature"},{"name":"Dzanga-Sangha","lat":2.25,"lng":16.3,"type":"nature"}]},{"name":"Chad","wiki":"Chad","capital":[12.1048,15.0444],"locations":[{"name":"Zakouma National Park","lat":10.62,"lng":19.8,"type":"nature"},{"name":"Moundou","lat":8.5667,"lng":16.0833,"type":"city"},{"name":"Zakouma National Park","lat":10.62,"lng":19.8,"type":"nature"}]},{"name":"Chile","wiki":"Chile","capital":[-33.4489,-70.6693],"locations":[{"name":"Torres del Paine","lat":-51.0,"lng":-72.5,"type":"nature"},{"name":"Valpara\u00edso","lat":-33.0472,"lng":-71.6127,"type":"city"},{"name":"Concepci\u00f3n","lat":-36.8201,"lng":-73.0444,"type":"city"},{"name":"Valdivia","lat":-39.8142,"lng":-73.2456,"type":"city"},{"name":"Torres del Paine","lat":-51.0,"lng":-72.5,"type":"nature"}]},{"name":"China","wiki":"China","capital":[39.9042,116.4074],"locations":[{"name":"Zhangjiajie National Forest Park","lat":29.3,"lng":110.5,"type":"nature"},{"name":"Shanghai","lat":31.2304,"lng":121.4737,"type":"city"},{"name":"Guangzhou","lat":23.1291,"lng":113.2644,"type":"city"},{"name":"Shenzhen","lat":22.5431,"lng":114.0579,"type":"city"},{"name":"Chongqing","lat":29.4316,"lng":106.9123,"type":"city"},{"name":"Zhangjiajie National Forest Park","lat":29.3,"lng":110.5,"type":"nature"}]},{"name":"Colombia","wiki":"Colombia","capital":[4.711,-74.0721],"locations":[{"name":"Tayrona National Park","lat":11.3,"lng":-74.6,"type":"nature"},{"name":"Medell\u00edn","lat":6.2442,"lng":-75.5812,"type":"city"},{"name":"Cali","lat":3.4516,"lng":-76.532,"type":"city"},{"name":"Cartagena","lat":10.391,"lng":-75.4794,"type":"unicode"},{"name":"Barranquilla","lat":10.9639,"lng":-74.7964,"type":"city"},{"name":"Tayrona National Park","lat":11.3,"lng":-74.6,"type":"nature"}]},{"name":"Comoros","wiki":"Comoros","capital":[-11.7022,43.2551],"locations":[]},{"name":"Congo (DRC)","wiki":"Democratic_Republic_of_the_Congo","capital":[-4.3276,15.3136],"locations":[{"name":"Virunga National Park","lat":-1.5,"lng":29.2,"type":"nature"},{"name":"Lubumbashi","lat":-11.66,"lng":27.4794,"type":"city"},{"name":"Virunga National Park","lat":-1.5,"lng":29.2,"type":"nature"}]},{"name":"Congo (Republic)","wiki":"Republic_of_the_Congo","capital":[-4.2661,15.2832],"locations":[{"name":"Odzala-Kokoua National Park","lat":1.0,"lng":16.2,"type":"nature"},{"name":"Pointe-Noire","lat":-4.7692,"lng":11.8664,"type":"city"},{"name":"Odzala-Kokoua National Park","lat":1.0,"lng":16.2,"type":"nature"}]},{"name":"Costa Rica","wiki":"Costa_Rica","capital":[9.9281,-84.0907],"locations":[{"name":"Manuel Antonio National Park","lat":9.4,"lng":-84.4,"type":"nature"},{"name":"Manuel Antonio National Park","lat":9.4,"lng":-84.4,"type":"nature"}]},{"name":"Croatia","wiki":"Croatia","capital":[45.815,15.9819],"locations":[{"name":"Plitvice Lakes National Park","lat":46.75,"lng":15.6,"type":"nature"},{"name":"Split","lat":43.5081,"lng":16.4402,"type":"city"},{"name":"Rijeka","lat":45.3271,"lng":14.4422,"type":"city"},{"name":"Dubrovnik","lat":42.6507,"lng":18.0944,"type":"unicode"},{"name":"Trogir","lat":43.5158,"lng":16.2511,"type":"unicode"},{"name":"Plitvice Lakes National Park","lat":46.75,"lng":15.6,"type":"nature"}]},{"name":"Cuba","wiki":"Cuba","capital":[23.1136,-82.3666],"locations":[{"name":"Vi\u00f1ales Valley","lat":22.6,"lng":-83.7,"type":"nature"},{"name":"Santiago de Cuba","lat":20.0243,"lng":-75.8219,"type":"city"},{"name":"Camag\u00fcey","lat":21.3803,"lng":-77.9169,"type":"city"},{"name":"Trinidad","lat":21.8028,"lng":-79.9841,"type":"unicode"},{"name":"Vi\u00f1ales Valley","lat":22.6,"lng":-83.7,"type":"nature"}]},{"name":"Cyprus","wiki":"Cyprus","capital":[35.1856,33.3823],"locations":[{"name":"Troodos Mountains","lat":34.95,"lng":33.05,"type":"nature"},{"name":"Limassol","lat":34.6786,"lng":33.0413,"type":"city"},{"name":"Larnaca","lat":34.9127,"lng":33.6333,"type":"city"},{"name":"Troodos Mountains","lat":34.95,"lng":33.05,"type":"nature"}]},{"name":"Czech Republic","wiki":"Czech_Republic","capital":[50.0755,14.4378],"locations":[{"name":"Bohemian Switzerland","lat":50.85,"lng":14.35,"type":"nature"},{"name":"Brno","lat":49.1951,"lng":16.6068,"type":"city"},{"name":"Ostrava","lat":49.8209,"lng":18.2625,"type":"city"},{"name":"\u010cesk\u00fd Krumlov","lat":48.8127,"lng":14.3175,"type":"unicode"},{"name":"Bohemian Switzerland","lat":50.85,"lng":14.35,"type":"nature"}]},{"name":"C\u00f4te d'Ivoire","wiki":"Ivory_Coast","capital":[6.8276,-5.2893],"locations":[{"name":"Ta\u00ef National Park","lat":5.5,"lng":-7.3,"type":"nature"},{"name":"Abidjan","lat":5.36,"lng":-4.0083,"type":"former"},{"name":"Ta\u00ef National Park","lat":5.5,"lng":-7.3,"type":"nature"}]},{"name":"Denmark","wiki":"Denmark","capital":[55.6761,12.5683],"locations":[{"name":"M\u00f8n Cliffs","lat":54.95,"lng":12.45,"type":"nature"},{"name":"Aarhus","lat":56.1629,"lng":10.2039,"type":"city"},{"name":"Odense","lat":55.4038,"lng":10.3875,"type":"city"},{"name":"M\u00f8n Cliffs","lat":54.95,"lng":12.45,"type":"nature"}]},{"name":"Dominica","wiki":"Dominica","capital":[15.3017,-61.3881],"locations":[{"name":"Morne Trois Pitons National Park","lat":15.4,"lng":-61.35,"type":"nature"},{"name":"Morne Trois Pitons National Park","lat":15.4,"lng":-61.35,"type":"nature"}]},{"name":"Dominican Republic","wiki":"Dominican_Republic","capital":[18.4861,-69.9312],"locations":[{"name":"Los Haitises National Park","lat":19.2,"lng":-69.4,"type":"nature"},{"name":"Santiago de los Caballeros","lat":19.4517,"lng":-70.697,"type":"city"},{"name":"Los Haitises National Park","lat":19.2,"lng":-69.4,"type":"nature"}]},{"name":"Ecuador","wiki":"Ecuador","capital":[-0.2298,-78.5249],"locations":[{"name":"Gal\u00e1pagos Islands","lat":-0.45,"lng":-90.2,"type":"nature"},{"name":"Guayaquil","lat":-2.1962,"lng":-79.8862,"type":"city"},{"name":"Cuenca","lat":-2.9001,"lng":-79.0059,"type":"unicode"},{"name":"Gal\u00e1pagos Islands","lat":-0.45,"lng":-90.2,"type":"nature"}]},{"name":"Egypt","wiki":"Egypt","capital":[30.0444,31.2357],"locations":[{"name":"White Desert National Park","lat":27.75,"lng":28.75,"type":"nature"},{"name":"Alexandria","lat":31.1975,"lng":29.8925,"type":"city"},{"name":"Giza","lat":30.0131,"lng":31.183,"type":"city"},{"name":"Memphis","lat":29.8442,"lng":31.2527,"type":"former"},{"name":"White Desert National Park","lat":27.75,"lng":28.75,"type":"nature"}]},{"name":"El Salvador","wiki":"El_Salvador","capital":[13.6929,-89.2182],"locations":[{"name":"Los Volcanes National Park","lat":13.8,"lng":-89.6,"type":"nature"},{"name":"Joya de Cer\u00e9n","lat":13.7169,"lng":-89.5728,"type":"unicode"},{"name":"Los Volcanes National Park","lat":13.8,"lng":-89.6,"type":"nature"}]},{"name":"Equatorial Guinea","wiki":"Equatorial_Guinea","capital":[3.75,8.7833],"locations":[{"name":"Monte Alen National Park","lat":1.95,"lng":10.35,"type":"nature"},{"name":"Bata","lat":1.8639,"lng":9.7661,"type":"city"},{"name":"Monte Alen National Park","lat":1.95,"lng":10.35,"type":"nature"}]},{"name":"Eritrea","wiki":"Eritrea","capital":[15.3229,38.9251],"locations":[]},{"name":"Estonia","wiki":"Estonia","capital":[59.437,24.7536],"locations":[{"name":"Lahemaa National Park","lat":59.5,"lng":25.5,"type":"nature"},{"name":"Tartu","lat":58.378,"lng":26.729,"type":"city"},{"name":"Narva","lat":59.3778,"lng":28.1945,"type":"city"},{"name":"Lahemaa National Park","lat":59.5,"lng":25.5,"type":"nature"}]},{"name":"Eswatini","wiki":"Eswatini","capital":[-26.3054,31.1367],"locations":[{"name":"Hluhluwe-iMfolozi Park","lat":-28.05,"lng":32.0,"type":"nature"},{"name":"Lobamba","lat":-26.4667,"lng":31.2,"type":"former"},{"name":"Hluhluwe-iMfolozi Park","lat":-28.05,"lng":32.0,"type":"nature"}]},{"name":"Ethiopia","wiki":"Ethiopia","capital":[8.9806,38.7578],"locations":[{"name":"Simien Mountains National Park","lat":13.2,"lng":38.3,"type":"nature"},{"name":"Dire Dawa","lat":9.5499,"lng":41.8606,"type":"city"},{"name":"Aksum","lat":14.131,"lng":38.7256,"type":"unicode"},{"name":"Lalibela","lat":12.0319,"lng":39.0472,"type":"unicode"},{"name":"Simien Mountains National Park","lat":13.2,"lng":38.3,"type":"nature"}]},{"name":"Fiji","wiki":"Fiji","capital":[-18.1416,178.4419],"locations":[{"name":"Bouma National Heritage Park","lat":-17.75,"lng":178.1,"type":"nature"},{"name":"Nadi","lat":-17.7765,"lng":177.4356,"type":"city"},{"name":"Bouma National Heritage Park","lat":-17.75,"lng":178.1,"type":"nature"}]},{"name":"Finland","wiki":"Finland","capital":[60.1699,24.9384],"locations":[{"name":"Nuuksio National Park","lat":60.3,"lng":24.9,"type":"nature"},{"name":"Espoo","lat":60.2055,"lng":24.6559,"type":"city"},{"name":"Tampere","lat":61.4978,"lng":23.761,"type":"city"},{"name":"Turku","lat":60.4518,"lng":22.2666,"type":"former"},{"name":"Nuuksio National Park","lat":60.3,"lng":24.9,"type":"nature"}]},{"name":"France","wiki":"France","capital":[48.8566,2.3522],"locations":[{"name":"Mont Blanc","lat":45.8325,"lng":6.8652,"type":"nature"},{"name":"Marseille","lat":43.2965,"lng":5.3698,"type":"city"},{"name":"Lyon","lat":45.764,"lng":4.8357,"type":"city"},{"name":"Toulouse","lat":43.6047,"lng":1.4442,"type":"city"},{"name":"Nice","lat":43.7102,"lng":7.262,"type":"city"},{"name":"Mont Blanc","lat":45.8325,"lng":6.8652,"type":"nature"}]},{"name":"Gabon","wiki":"Gabon","capital":[0.3901,9.45],"locations":[{"name":"Loango National Park","lat":-2.4,"lng":9.3,"type":"nature"},{"name":"Port-Gentil","lat":-0.7193,"lng":8.7815,"type":"city"},{"name":"Loango National Park","lat":-2.4,"lng":9.3,"type":"nature"}]},{"name":"Gambia","wiki":"The_Gambia","capital":[13.4531,-16.5775],"locations":[{"name":"Niokolo-Koba National Park","lat":13.3,"lng":-12.3,"type":"nature"},{"name":"Niokolo-Koba National Park","lat":13.3,"lng":-12.3,"type":"nature"}]},{"name":"Georgia","wiki":"Georgia_(country)","capital":[41.6938,44.8015],"locations":[{"name":"Kazbegi National Park","lat":42.65,"lng":44.6,"type":"nature"},{"name":"Kutaisi","lat":42.2679,"lng":42.7057,"type":"former"},{"name":"Batumi","lat":41.6168,"lng":41.6367,"type":"city"},{"name":"Kazbegi National Park","lat":42.65,"lng":44.6,"type":"nature"}]},{"name":"Germany","wiki":"Germany","capital":[52.52,13.405],"locations":[{"name":"Harz National Park","lat":51.65,"lng":10.45,"type":"nature"},{"name":"Munich","lat":48.1351,"lng":11.582,"type":"city"},{"name":"Hamburg","lat":53.5753,"lng":10.0153,"type":"city"},{"name":"Cologne","lat":50.9413,"lng":6.9583,"type":"city"},{"name":"Frankfurt","lat":50.1109,"lng":8.6821,"type":"city"},{"name":"Harz National Park","lat":51.65,"lng":10.45,"type":"nature"}]},{"name":"Ghana","wiki":"Ghana","capital":[5.56,-0.2057],"locations":[{"name":"Kakum National Park","lat":5.3,"lng":-1.05,"type":"nature"},{"name":"Kumasi","lat":6.6884,"lng":-1.6244,"type":"city"},{"name":"Kakum National Park","lat":5.3,"lng":-1.05,"type":"nature"}]},{"name":"Greece","wiki":"Greece","capital":[37.9838,23.7275],"locations":[{"name":"Mount Olympus National Park","lat":39.86,"lng":22.35,"type":"nature"},{"name":"Thessaloniki","lat":40.6401,"lng":22.9444,"type":"city"},{"name":"Patras","lat":38.2466,"lng":21.7346,"type":"city"},{"name":"Delphi","lat":38.4824,"lng":22.5011,"type":"unicode"},{"name":"Mount Olympus National Park","lat":39.86,"lng":22.35,"type":"nature"}]},{"name":"Grenada","wiki":"Grenada","capital":[12.0561,-61.7488],"locations":[{"name":"Grand \u00c9tang National Park","lat":12.05,"lng":-61.7,"type":"nature"},{"name":"Grand \u00c9tang National Park","lat":12.05,"lng":-61.7,"type":"nature"}]},{"name":"Guinea","wiki":"Guinea","capital":[9.6412,-13.5784],"locations":[{"name":"Mont Nimba","lat":7.6,"lng":-8.4,"type":"nature"},{"name":"Mont Nimba","lat":7.6,"lng":-8.4,"type":"nature"}]},{"name":"Guinea-Bissau","wiki":"Guinea-Bissau","capital":[11.8636,-15.5977],"locations":[{"name":"Bijag\u00f3s Archipelago","lat":10.5,"lng":-15.5,"type":"nature"},{"name":"Bijag\u00f3s Archipelago","lat":10.5,"lng":-15.5,"type":"nature"}]},{"name":"Guyana","wiki":"Guyana","capital":[6.8013,-58.1553],"locations":[{"name":"Kaieteur Falls National Park","lat":5.19,"lng":-59.48,"type":"nature"},{"name":"Kaieteur Falls National Park","lat":5.19,"lng":-59.48,"type":"nature"}]},{"name":"Haiti","wiki":"Haiti","capital":[18.5944,-72.3074],"locations":[{"name":"Pic la Selle","lat":18.3,"lng":-72.2,"type":"nature"},{"name":"Pic la Selle","lat":18.3,"lng":-72.2,"type":"nature"}]},{"name":"Honduras","wiki":"Honduras","capital":[14.0723,-87.2062],"locations":[{"name":"Roat\u00e1n Bay Islands","lat":16.3,"lng":-86.5,"type":"nature"},{"name":"San Pedro Sula","lat":15.5,"lng":-88.0333,"type":"city"},{"name":"Roat\u00e1n Bay Islands","lat":16.3,"lng":-86.5,"type":"nature"}]},{"name":"Hungary","wiki":"Hungary","capital":[47.4979,19.0402],"locations":[{"name":"Aggtelek National Park","lat":48.5,"lng":20.5,"type":"nature"},{"name":"Debrecen","lat":47.5316,"lng":21.6273,"type":"city"},{"name":"Szeged","lat":46.253,"lng":20.1414,"type":"city"},{"name":"Aggtelek National Park","lat":48.5,"lng":20.5,"type":"nature"}]},{"name":"Iceland","wiki":"Iceland","capital":[64.1466,-21.9426],"locations":[{"name":"Vatnaj\u00f6kull National Park","lat":64.0,"lng":-16.8,"type":"nature"},{"name":"Akureyri","lat":65.6885,"lng":-18.1262,"type":"city"},{"name":"Vatnaj\u00f6kull National Park","lat":64.0,"lng":-16.8,"type":"nature"}]},{"name":"India","wiki":"India","capital":[28.6139,77.209],"locations":[{"name":"Jim Corbett National Park","lat":29.5,"lng":79.15,"type":"nature"},{"name":"Mumbai","lat":19.076,"lng":72.8777,"type":"city"},{"name":"Bangalore","lat":12.9716,"lng":77.5946,"type":"city"},{"name":"Kolkata","lat":22.5726,"lng":88.3639,"type":"city"},{"name":"Chennai","lat":13.0827,"lng":80.2707,"type":"city"},{"name":"Jim Corbett National Park","lat":29.5,"lng":79.15,"type":"nature"}]},{"name":"Indonesia","wiki":"Indonesia","capital":[-1.0,117.0],"locations":[{"name":"Komodo National Park","lat":-8.5,"lng":119.6,"type":"nature"},{"name":"Jakarta","lat":-6.2088,"lng":106.8456,"type":"former"},{"name":"Surabaya","lat":-7.2575,"lng":112.7521,"type":"city"},{"name":"Bandung","lat":-6.9147,"lng":107.6098,"type":"city"},{"name":"Komodo National Park","lat":-8.5,"lng":119.6,"type":"nature"}]},{"name":"Iran","wiki":"Iran","capital":[35.6892,51.389],"locations":[{"name":"Mount Damavand","lat":35.96,"lng":51.43,"type":"nature"},{"name":"Mashhad","lat":36.2971,"lng":59.6062,"type":"city"},{"name":"Isfahan","lat":32.6539,"lng":51.666,"type":"city"},{"name":"Shiraz","lat":29.5918,"lng":52.5836,"type":"city"},{"name":"Mount Damavand","lat":35.96,"lng":51.43,"type":"nature"}]},{"name":"Iraq","wiki":"Iraq","capital":[33.3152,44.3661],"locations":[{"name":"Mesopotamian Marshes","lat":30.8,"lng":47.2,"type":"nature"},{"name":"Basra","lat":30.5085,"lng":47.7804,"type":"city"},{"name":"Mosul","lat":36.335,"lng":43.1189,"type":"city"},{"name":"Mesopotamian Marshes","lat":30.8,"lng":47.2,"type":"nature"}]},{"name":"Ireland","wiki":"Republic_of_Ireland","capital":[53.3498,-6.2603],"locations":[{"name":"Cliffs of Moher","lat":52.72,"lng":-9.93,"type":"nature"},{"name":"Cork","lat":51.8985,"lng":-8.4756,"type":"city"},{"name":"Galway","lat":53.2707,"lng":-9.0568,"type":"city"},{"name":"Cliffs of Moher","lat":52.72,"lng":-9.93,"type":"nature"}]},{"name":"Israel","wiki":"Israel","capital":[31.7683,35.2137],"locations":[{"name":"Dead Sea","lat":31.5,"lng":35.5,"type":"nature"},{"name":"Tel Aviv","lat":32.0853,"lng":34.7818,"type":"city"},{"name":"Haifa","lat":32.8193,"lng":34.9897,"type":"city"},{"name":"Dead Sea","lat":31.5,"lng":35.5,"type":"nature"}]},{"name":"Italy","wiki":"Italy","capital":[41.9028,12.4964],"locations":[{"name":"Cinque Terre","lat":43.13,"lng":12.43,"type":"nature"},{"name":"Milan","lat":45.4642,"lng":9.19,"type":"city"},{"name":"Naples","lat":40.8522,"lng":14.2681,"type":"city"},{"name":"Florence","lat":43.7696,"lng":11.2558,"type":"unicode"},{"name":"Venice","lat":45.4408,"lng":12.3155,"type":"unicode"},{"name":"Cinque Terre","lat":43.13,"lng":12.43,"type":"nature"}]},{"name":"Jamaica","wiki":"Jamaica","capital":[17.9714,-76.7937],"locations":[{"name":"Dunn's River Falls","lat":18.3,"lng":-77.25,"type":"nature"},{"name":"Dunn's River Falls","lat":18.3,"lng":-77.25,"type":"nature"}]},{"name":"Japan","wiki":"Japan","capital":[35.6762,139.6503],"locations":[{"name":"Mount Fuji","lat":35.3622,"lng":138.728,"type":"nature"},{"name":"Osaka","lat":34.6937,"lng":135.5023,"type":"city"},{"name":"Yokohama","lat":35.4437,"lng":139.638,"type":"city"},{"name":"Kyoto","lat":35.0116,"lng":135.7681,"type":"former"},{"name":"Mount Fuji","lat":35.3622,"lng":138.728,"type":"nature"}]},{"name":"Jordan","wiki":"Jordan","capital":[31.9566,35.9456],"locations":[{"name":"Wadi Rum Protected Area","lat":29.85,"lng":35.45,"type":"nature"},{"name":"Zarqa","lat":32.0728,"lng":36.088,"type":"city"},{"name":"Petra","lat":30.3285,"lng":35.4444,"type":"unicode"},{"name":"Wadi Rum Protected Area","lat":29.85,"lng":35.45,"type":"nature"}]},{"name":"Kazakhstan","wiki":"Kazakhstan","capital":[51.1801,71.446],"locations":[{"name":"Charyn Canyon National Nature Park","lat":43.3,"lng":78.6,"type":"nature"},{"name":"Almaty","lat":43.222,"lng":76.8512,"type":"former"},{"name":"Karaganda","lat":49.8047,"lng":72.8241,"type":"city"},{"name":"Charyn Canyon National Nature Park","lat":43.3,"lng":78.6,"type":"nature"}]},{"name":"Kenya","wiki":"Kenya","capital":[-1.2921,36.8219],"locations":[{"name":"Maasai Mara National Reserve","lat":-1.5,"lng":34.85,"type":"nature"},{"name":"Mombasa","lat":-4.0435,"lng":39.6682,"type":"city"},{"name":"Kisumu","lat":-0.1022,"lng":34.7617,"type":"city"},{"name":"Maasai Mara National Reserve","lat":-1.5,"lng":34.85,"type":"nature"}]},{"name":"Kiribati","wiki":"Kiribati","capital":[1.329,172.979],"locations":[]},{"name":"Kyrgyzstan","wiki":"Kyrgyzstan","capital":[42.8746,74.5698],"locations":[{"name":"Issyk-Kul Lake","lat":42.5,"lng":77.5,"type":"nature"},{"name":"Osh","lat":40.5283,"lng":72.7985,"type":"city"},{"name":"Issyk-Kul Lake","lat":42.5,"lng":77.5,"type":"nature"}]},{"name":"Laos","wiki":"Laos","capital":[17.9757,102.6331],"locations":[{"name":"Kuang Si Falls","lat":19.88,"lng":102.2,"type":"nature"},{"name":"Luang Prabang","lat":19.8833,"lng":102.1328,"type":"unicode"},{"name":"Kuang Si Falls","lat":19.88,"lng":102.2,"type":"nature"}]},{"name":"Latvia","wiki":"Latvia","capital":[56.9496,24.1052],"locations":[{"name":"Gauja National Park","lat":57.3,"lng":24.8,"type":"nature"},{"name":"Daugavpils","lat":55.8747,"lng":26.5361,"type":"city"},{"name":"Gauja National Park","lat":57.3,"lng":24.8,"type":"nature"}]},{"name":"Lebanon","wiki":"Lebanon","capital":[33.8886,35.4955],"locations":[{"name":"Cedars of God","lat":34.25,"lng":35.9,"type":"nature"},{"name":"Tripoli","lat":34.4386,"lng":35.845,"type":"city"},{"name":"Byblos","lat":34.1236,"lng":35.6481,"type":"unicode"},{"name":"Cedars of God","lat":34.25,"lng":35.9,"type":"nature"}]},{"name":"Lesotho","wiki":"Lesotho","capital":[-29.3167,27.4833],"locations":[{"name":"Sehlabathebe National Park","lat":-30.25,"lng":29.8,"type":"nature"},{"name":"Sehlabathebe National Park","lat":-30.25,"lng":29.8,"type":"nature"}]},{"name":"Liberia","wiki":"Liberia","capital":[6.3005,-10.7969],"locations":[{"name":"Sapo National Park","lat":4.75,"lng":-8.0,"type":"nature"},{"name":"Sapo National Park","lat":4.75,"lng":-8.0,"type":"nature"}]},{"name":"Libya","wiki":"Libya","capital":[32.9006,13.1862],"locations":[{"name":"Tadrart Acacus","lat":24.8,"lng":8.7,"type":"nature"},{"name":"Benghazi","lat":32.1154,"lng":20.0686,"type":"city"},{"name":"Tadrart Acacus","lat":24.8,"lng":8.7,"type":"nature"}]},{"name":"Liechtenstein","wiki":"Liechtenstein","capital":[47.141,9.5215],"locations":[{"name":"Vaduz Castle","lat":47.14,"lng":9.52,"type":"nature"},{"name":"Vaduz Castle","lat":47.14,"lng":9.52,"type":"nature"}]},{"name":"Lithuania","wiki":"Lithuania","capital":[54.6872,25.2797],"locations":[{"name":"Curonian Spit","lat":55.2,"lng":21.0,"type":"nature"},{"name":"Kaunas","lat":54.8985,"lng":23.9036,"type":"city"},{"name":"Klaipeda","lat":55.7206,"lng":21.1449,"type":"city"},{"name":"Curonian Spit","lat":55.2,"lng":21.0,"type":"nature"}]},{"name":"Madagascar","wiki":"Madagascar","capital":[-18.9137,47.5361],"locations":[{"name":"Avenue of the Baobabs","lat":-19.96,"lng":44.39,"type":"nature"},{"name":"Toamasina","lat":-18.1492,"lng":49.4023,"type":"city"},{"name":"Avenue of the Baobabs","lat":-19.96,"lng":44.39,"type":"nature"}]},{"name":"Malawi","wiki":"Malawi","capital":[-13.9669,33.7873],"locations":[{"name":"Lake Malawi National Park","lat":-14.5,"lng":34.9,"type":"nature"},{"name":"Blantyre","lat":-15.7861,"lng":35.0058,"type":"city"},{"name":"Lake Malawi National Park","lat":-14.5,"lng":34.9,"type":"nature"}]},{"name":"Maldives","wiki":"Maldives","capital":[4.1755,73.5093],"locations":[]},{"name":"Mali","wiki":"Mali","capital":[12.6392,-8.0029],"locations":[{"name":"Gao Region","lat":16.27,"lng":-0.04,"type":"nature"},{"name":"Timbuktu","lat":16.7735,"lng":-3.0074,"type":"unicode"},{"name":"Gao Region","lat":16.27,"lng":-0.04,"type":"nature"}]},{"name":"Malta","wiki":"Malta","capital":[35.9042,14.5189],"locations":[]},{"name":"Marshall Islands","wiki":"Marshall_Islands","capital":[7.1167,171.3667],"locations":[]},{"name":"Mauritania","wiki":"Mauritania","capital":[18.0735,-15.9582],"locations":[{"name":"Banc d'Arguin National Park","lat":20.9,"lng":-16.2,"type":"nature"},{"name":"Banc d'Arguin National Park","lat":20.9,"lng":-16.2,"type":"nature"}]},{"name":"Mauritius","wiki":"Mauritius","capital":[-20.1608,57.4989],"locations":[{"name":"Black River Gorges National Park","lat":-20.35,"lng":57.4,"type":"nature"},{"name":"Black River Gorges National Park","lat":-20.35,"lng":57.4,"type":"nature"}]},{"name":"Micronesia","wiki":"Federated_States_of_Micronesia","capital":[6.9248,158.1618],"locations":[]},{"name":"Moldova","wiki":"Moldova","capital":[47.0105,28.8638],"locations":[{"name":"Orheiul Vechi","lat":47.4,"lng":28.4,"type":"nature"},{"name":"B\u0103l\u021bi","lat":47.7617,"lng":27.9297,"type":"city"},{"name":"Orheiul Vechi","lat":47.4,"lng":28.4,"type":"nature"}]},{"name":"Monaco","wiki":"Monaco","capital":[43.7384,7.4246],"locations":[]},{"name":"Mongolia","wiki":"Mongolia","capital":[47.8864,106.9057],"locations":[{"name":"Gobi Desert","lat":43.5,"lng":104.0,"type":"nature"},{"name":"Darkhan","lat":49.5,"lng":105.8167,"type":"city"},{"name":"Gobi Desert","lat":43.5,"lng":104.0,"type":"nature"}]},{"name":"Montenegro","wiki":"Montenegro","capital":[42.4304,19.2594],"locations":[{"name":"Durmitor National Park","lat":43.2,"lng":19.05,"type":"nature"},{"name":"Cetinje","lat":42.3931,"lng":18.9225,"type":"former"},{"name":"Durmitor National Park","lat":43.2,"lng":19.05,"type":"nature"}]},{"name":"Morocco","wiki":"Morocco","capital":[33.9716,-6.8498],"locations":[{"name":"Toubkal National Park","lat":31.06,"lng":-8.0,"type":"nature"},{"name":"Casablanca","lat":33.5731,"lng":-7.5898,"type":"city"},{"name":"Fez","lat":34.0181,"lng":-5.0078,"type":"former"},{"name":"Marrakesh","lat":31.6295,"lng":-7.9811,"type":"unicode"},{"name":"Toubkal National Park","lat":31.06,"lng":-8.0,"type":"nature"}]},{"name":"Mozambique","wiki":"Mozambique","capital":[-25.9692,32.5732],"locations":[{"name":"Gorongosa National Park","lat":-18.7,"lng":34.4,"type":"nature"},{"name":"Beira","lat":-19.8436,"lng":34.8389,"type":"city"},{"name":"Gorongosa National Park","lat":-18.7,"lng":34.4,"type":"nature"}]},{"name":"Myanmar","wiki":"Myanmar","capital":[19.7633,96.0785],"locations":[{"name":"Bagan Archaeological Zone","lat":21.17,"lng":94.86,"type":"nature"},{"name":"Yangon","lat":16.8661,"lng":96.1951,"type":"former"},{"name":"Mandalay","lat":21.9162,"lng":96.0891,"type":"city"},{"name":"Bagan Archaeological Zone","lat":21.17,"lng":94.86,"type":"nature"}]},{"name":"Namibia","wiki":"Namibia","capital":[-22.5597,17.0832],"locations":[{"name":"Namib Desert","lat":-24.5,"lng":15.5,"type":"nature"},{"name":"Walvis Bay","lat":-22.9575,"lng":14.5053,"type":"city"},{"name":"Namib Desert","lat":-24.5,"lng":15.5,"type":"nature"}]},{"name":"Nauru","wiki":"Nauru","capital":[-0.5477,166.9209],"locations":[]},{"name":"Nepal","wiki":"Nepal","capital":[27.7172,85.324],"locations":[{"name":"Sagarmatha National Park","lat":28.0,"lng":86.9,"type":"nature"},{"name":"Pokhara","lat":28.2096,"lng":83.9856,"type":"city"},{"name":"Sagarmatha National Park","lat":28.0,"lng":86.9,"type":"nature"}]},{"name":"Netherlands","wiki":"Netherlands","capital":[52.3676,4.9041],"locations":[{"name":"De Hoge Veluwe National Park","lat":52.25,"lng":5.85,"type":"nature"},{"name":"Rotterdam","lat":51.9225,"lng":4.4792,"type":"city"},{"name":"The Hague","lat":52.0705,"lng":4.3007,"type":"city"},{"name":"De Hoge Veluwe National Park","lat":52.25,"lng":5.85,"type":"nature"}]},{"name":"New Zealand","wiki":"New_Zealand","capital":[-41.2865,174.7762],"locations":[{"name":"Milford Sound","lat":-44.67,"lng":-168.0,"type":"nature"},{"name":"Auckland","lat":-36.8485,"lng":174.7633,"type":"city"},{"name":"Christchurch","lat":-43.5321,"lng":172.6362,"type":"city"},{"name":"Milford Sound","lat":-44.67,"lng":-168.0,"type":"nature"}]},{"name":"Nicaragua","wiki":"Nicaragua","capital":[12.1364,-86.2514],"locations":[{"name":"Lake Nicaragua","lat":11.5,"lng":-85.3,"type":"nature"},{"name":"Le\u00f3n","lat":12.4359,"lng":-86.8782,"type":"former"},{"name":"Lake Nicaragua","lat":11.5,"lng":-85.3,"type":"nature"}]},{"name":"Niger","wiki":"Niger","capital":[13.5137,2.1098],"locations":[{"name":"W National Park","lat":2.3,"lng":2.3,"type":"nature"},{"name":"W National Park","lat":2.3,"lng":2.3,"type":"nature"}]},{"name":"Nigeria","wiki":"Nigeria","capital":[9.0579,7.4951],"locations":[{"name":"Cross-Sanaga-Bioko Coastal Forests","lat":4.3,"lng":9.25,"type":"nature"},{"name":"Lagos","lat":6.5244,"lng":3.3792,"type":"former"},{"name":"Ibadan","lat":7.3775,"lng":3.947,"type":"city"},{"name":"Kano","lat":12.0022,"lng":8.592,"type":"city"},{"name":"Cross-Sanaga-Bioko Coastal Forests","lat":4.3,"lng":9.25,"type":"nature"}]},{"name":"North Korea","wiki":"North_Korea","capital":[39.0194,125.7381],"locations":[{"name":"Mount Paektu","lat":41.99,"lng":128.06,"type":"nature"},{"name":"Mount Paektu","lat":41.99,"lng":128.06,"type":"nature"}]},{"name":"North Macedonia","wiki":"North_Macedonia","capital":[41.9973,21.428],"locations":[{"name":"Galicica National Park","lat":41.1,"lng":20.9,"type":"nature"},{"name":"Bitola","lat":41.0113,"lng":21.3245,"type":"city"},{"name":"Ohrid","lat":41.1231,"lng":20.8016,"type":"unicode"},{"name":"Galicica National Park","lat":41.1,"lng":20.9,"type":"nature"}]},{"name":"Norway","wiki":"Norway","capital":[59.9139,10.7522],"locations":[{"name":"Geirangerfjord","lat":62.1,"lng":7.2,"type":"nature"},{"name":"Bergen","lat":60.3913,"lng":5.3221,"type":"city"},{"name":"Trondheim","lat":63.4269,"lng":10.3952,"type":"city"},{"name":"Geirangerfjord","lat":62.1,"lng":7.2,"type":"nature"}]},{"name":"Oman","wiki":"Oman","capital":[23.588,58.3829],"locations":[{"name":"Musandam Peninsula","lat":26.2,"lng":56.2,"type":"nature"},{"name":"Salalah","lat":17.0151,"lng":54.0924,"type":"city"},{"name":"Musandam Peninsula","lat":26.2,"lng":56.2,"type":"nature"}]},{"name":"Pakistan","wiki":"Pakistan","capital":[33.6844,73.0479],"locations":[{"name":"Hunza Valley","lat":36.85,"lng":74.95,"type":"nature"},{"name":"Karachi","lat":24.8607,"lng":67.0011,"type":"former"},{"name":"Lahore","lat":31.5204,"lng":74.3587,"type":"city"},{"name":"Multan","lat":30.1575,"lng":71.4454,"type":"city"},{"name":"Hunza Valley","lat":36.85,"lng":74.95,"type":"nature"}]},{"name":"Palau","wiki":"Palau","capital":[7.5149,134.5825],"locations":[{"name":"Palau National Marine Sanctuary","lat":7.3,"lng":134.5,"type":"nature"},{"name":"Palau National Marine Sanctuary","lat":7.3,"lng":134.5,"type":"nature"}]},{"name":"Papua New Guinea","wiki":"Papua_New_Guinea","capital":[-9.4438,147.1803],"locations":[{"name":"Kokoda Track","lat":-8.8,"lng":147.7,"type":"nature"},{"name":"Kokoda Track","lat":-8.8,"lng":147.7,"type":"nature"}]},{"name":"Paraguay","wiki":"Paraguay","capital":[-25.2867,-57.647],"locations":[{"name":"Iguaz\u00fa Falls","lat":-25.6,"lng":-54.4,"type":"nature"},{"name":"Iguaz\u00fa Falls","lat":-25.6,"lng":-54.4,"type":"nature"}]},{"name":"Peru","wiki":"Peru","capital":[-12.0464,-77.0428],"locations":[{"name":"Machu Picchu","lat":-13.1631,"lng":-72.545,"type":"nature"},{"name":"Arequipa","lat":-16.409,"lng":-71.5375,"type":"city"},{"name":"Cusco","lat":-13.5319,"lng":-71.9675,"type":"former"},{"name":"Machu Picchu","lat":-13.1631,"lng":-72.545,"type":"unicode"},{"name":"Machu Picchu","lat":-13.1631,"lng":-72.545,"type":"nature"}]},{"name":"Poland","wiki":"Poland","capital":[52.2297,21.0122],"locations":[{"name":"Bia\u0142owie\u017ca Forest","lat":52.7,"lng":24.2,"type":"nature"},{"name":"Krak\u00f3w","lat":50.0647,"lng":19.945,"type":"city"},{"name":"Wroc\u0142aw","lat":51.1079,"lng":17.0385,"type":"city"},{"name":"Gda\u0144sk","lat":54.352,"lng":18.6466,"type":"city"},{"name":"Bia\u0142owie\u017ca Forest","lat":52.7,"lng":24.2,"type":"nature"}]},{"name":"Portugal","wiki":"Portugal","capital":[38.7223,-9.1393],"locations":[{"name":"Douro Valley","lat":41.2,"lng":-7.5,"type":"nature"},{"name":"Porto","lat":41.1579,"lng":-8.6291,"type":"city"},{"name":"Covilh\u00e3","lat":40.2835,"lng":-7.5006,"type":"city"},{"name":"Douro Valley","lat":41.2,"lng":-7.5,"type":"nature"}]},{"name":"Qatar","wiki":"Qatar","capital":[25.2854,51.531],"locations":[]},{"name":"Romania","wiki":"Romania","capital":[44.4268,26.1025],"locations":[{"name":"Carpathian Mountains","lat":45.5,"lng":24.5,"type":"nature"},{"name":"Cluj-Napoca","lat":46.7712,"lng":23.6236,"type":"city"},{"name":"Timi\u0219oara","lat":45.7489,"lng":21.2087,"type":"city"},{"name":"Carpathian Mountains","lat":45.5,"lng":24.5,"type":"nature"}]},{"name":"Russia","wiki":"Russia","capital":[55.7558,37.6173],"locations":[{"name":"Lake Baikal","lat":55.0,"lng":104.0,"type":"nature"},{"name":"Saint Petersburg","lat":59.9343,"lng":30.3351,"type":"former"},{"name":"Novosibirsk","lat":55.0415,"lng":82.9346,"type":"city"},{"name":"Yekaterinburg","lat":56.8389,"lng":60.6057,"type":"city"},{"name":"Lake Baikal","lat":55.0,"lng":104.0,"type":"nature"}]},{"name":"Rwanda","wiki":"Rwanda","capital":[-1.9403,29.8739],"locations":[{"name":"Volcanoes National Park","lat":-1.5,"lng":29.6,"type":"nature"},{"name":"Volcanoes National Park","lat":-1.5,"lng":29.6,"type":"nature"}]},{"name":"Saint Kitts and Nevis","wiki":"Saint_Kitts_and_Nevis","capital":[17.3026,-62.7177],"locations":[]},{"name":"Saint Lucia","wiki":"Saint_Lucia","capital":[14.0101,-60.9875],"locations":[]},{"name":"Saint Vincent and the Grenadines","wiki":"Saint_Vincent_and_the_Grenadines","capital":[13.16,-61.2248],"locations":[]},{"name":"Samoa","wiki":"Samoa","capital":[-13.8506,-171.7513],"locations":[{"name":"Upolu Crater Lake","lat":-13.8,"lng":-171.7,"type":"nature"},{"name":"Upolu Crater Lake","lat":-13.8,"lng":-171.7,"type":"nature"}]},{"name":"San Marino","wiki":"San_Marino","capital":[43.9424,12.4578],"locations":[]},{"name":"Saudi Arabia","wiki":"Saudi_Arabia","capital":[24.6877,46.7219],"locations":[{"name":"Asir Mountains","lat":18.0,"lng":42.5,"type":"nature"},{"name":"Mecca","lat":21.3891,"lng":39.8579,"type":"former"},{"name":"Jeddah","lat":21.2854,"lng":39.2376,"type":"city"},{"name":"Asir Mountains","lat":18.0,"lng":42.5,"type":"nature"}]},{"name":"Senegal","wiki":"Senegal","capital":[14.7167,-17.4677],"locations":[{"name":"Djoudj National Bird Sanctuary","lat":16.25,"lng":-15.45,"type":"nature"},{"name":"Thi\u00e8s","lat":14.7949,"lng":-16.9239,"type":"city"},{"name":"Djoudj National Bird Sanctuary","lat":16.25,"lng":-15.45,"type":"nature"}]},{"name":"Serbia","wiki":"Serbia","capital":[44.8176,20.4633],"locations":[{"name":"Tara National Park","lat":43.7,"lng":19.6,"type":"nature"},{"name":"Novi Sad","lat":45.2671,"lng":19.8335,"type":"city"},{"name":"Ni\u0161","lat":43.3209,"lng":21.8863,"type":"city"},{"name":"Tara National Park","lat":43.7,"lng":19.6,"type":"nature"}]},{"name":"Seychelles","wiki":"Seychelles","capital":[-4.6191,55.4513],"locations":[{"name":"Vall\u00e9e de Mai Nature Reserve","lat":-4.33,"lng":55.48,"type":"nature"},{"name":"Vall\u00e9e de Mai Nature Reserve","lat":-4.33,"lng":55.48,"type":"nature"}]},{"name":"Sierra Leone","wiki":"Sierra_Leone","capital":[8.4657,-13.2317],"locations":[{"name":"Outamba-Kilimi National Park","lat":9.5,"lng":-11.4,"type":"nature"},{"name":"Outamba-Kilimi National Park","lat":9.5,"lng":-11.4,"type":"nature"}]},{"name":"Singapore","wiki":"Singapore","capital":[1.3521,103.8198],"locations":[{"name":"MacRitchie Reservoir","lat":1.37,"lng":103.84,"type":"nature"},{"name":"MacRitchie Reservoir","lat":1.37,"lng":103.84,"type":"nature"}]},{"name":"Slovakia","wiki":"Slovakia","capital":[48.1486,17.1077],"locations":[{"name":"High Tatras","lat":49.2,"lng":20.0,"type":"nature"},{"name":"Ko\u0161ice","lat":48.7164,"lng":21.2611,"type":"city"},{"name":"High Tatras","lat":49.2,"lng":20.0,"type":"nature"}]},{"name":"Slovenia","wiki":"Slovenia","capital":[46.0569,14.5058],"locations":[{"name":"Triglav National Park","lat":46.4,"lng":14.0,"type":"nature"},{"name":"Maribor","lat":46.5547,"lng":15.6467,"type":"city"},{"name":"Triglav National Park","lat":46.4,"lng":14.0,"type":"nature"}]},{"name":"Solomon Islands","wiki":"Solomon_Islands","capital":[-9.4456,160.0327],"locations":[]},{"name":"Somalia","wiki":"Somalia","capital":[2.0469,45.3182],"locations":[{"name":"Socotra Island","lat":12.5,"lng":54.0,"type":"nature"},{"name":"Hargeisa","lat":9.5597,"lng":44.065,"type":"city"},{"name":"Socotra Island","lat":12.5,"lng":54.0,"type":"nature"}]},{"name":"South Africa","wiki":"South_Africa","capital":[-25.7479,28.2293],"locations":[{"name":"Kruger National Park","lat":-24.0,"lng":31.5,"type":"nature"},{"name":"Cape Town","lat":-33.9249,"lng":18.4241,"type":"city"},{"name":"Johannesburg","lat":-26.2041,"lng":28.0473,"type":"city"},{"name":"Bloemfontein","lat":-29.1199,"lng":26.2148,"type":"former"},{"name":"Kruger National Park","lat":-24.0,"lng":31.5,"type":"nature"}]},{"name":"South Korea","wiki":"South_Korea","capital":[37.5665,126.978],"locations":[{"name":"Seoraksan National Park","lat":38.1,"lng":128.5,"type":"nature"},{"name":"Busan","lat":35.1796,"lng":129.0756,"type":"city"},{"name":"Incheon","lat":37.4419,"lng":126.7036,"type":"city"},{"name":"Daegu","lat":35.8714,"lng":128.589,"type":"city"},{"name":"Seoraksan National Park","lat":38.1,"lng":128.5,"type":"nature"}]},{"name":"South Sudan","wiki":"South_Sudan","capital":[4.8594,31.5713],"locations":[{"name":"Sudd Wetlands","lat":6.0,"lng":30.5,"type":"nature"},{"name":"Sudd Wetlands","lat":6.0,"lng":30.5,"type":"nature"}]},{"name":"Spain","wiki":"Spain","capital":[40.4168,-3.7038],"locations":[{"name":"Picos de Europa National Park","lat":43.2,"lng":-4.8,"type":"nature"},{"name":"Barcelona","lat":41.3851,"lng":2.1734,"type":"city"},{"name":"Valencia","lat":39.4699,"lng":-0.3763,"type":"city"},{"name":"Seville","lat":37.3886,"lng":-5.9824,"type":"city"},{"name":"Granada","lat":37.176,"lng":-3.5882,"type":"unicode"},{"name":"Picos de Europa National Park","lat":43.2,"lng":-4.8,"type":"nature"}]},{"name":"Sri Lanka","wiki":"Sri_Lanka","capital":[6.9008,79.9013],"locations":[{"name":"Sinharaja Rainforest","lat":6.4,"lng":80.4,"type":"nature"},{"name":"Colombo","lat":6.9271,"lng":79.8612,"type":"former"},{"name":"Kandy","lat":7.2906,"lng":80.6337,"type":"unicode"},{"name":"Sinharaja Rainforest","lat":6.4,"lng":80.4,"type":"nature"}]},{"name":"Sudan","wiki":"Sudan","capital":[15.5007,32.5599],"locations":[{"name":"Dinder National Park","lat":10.5,"lng":34.5,"type":"nature"},{"name":"Omdurman","lat":15.6145,"lng":32.48,"type":"city"},{"name":"Dinder National Park","lat":10.5,"lng":34.5,"type":"nature"}]},{"name":"Suriname","wiki":"Suriname","capital":[5.852,-55.2038],"locations":[{"name":"Raleighvallen National Park","lat":3.7,"lng":-56.4,"type":"nature"},{"name":"Raleighvallen National Park","lat":3.7,"lng":-56.4,"type":"nature"}]},{"name":"Sweden","wiki":"Sweden","capital":[59.3293,18.0686],"locations":[{"name":"Sarek National Park","lat":67.0,"lng":16.9,"type":"nature"},{"name":"Gothenburg","lat":57.7089,"lng":11.9746,"type":"city"},{"name":"Malm\u00f6","lat":55.605,"lng":12.9854,"type":"city"},{"name":"Uppsala","lat":59.8586,"lng":17.6389,"type":"city"},{"name":"Sarek National Park","lat":67.0,"lng":16.9,"type":"nature"}]},{"name":"Switzerland","wiki":"Switzerland","capital":[46.948,7.4474],"locations":[{"name":"Jungfrau Region","lat":46.5,"lng":8.2,"type":"nature"},{"name":"Z\u00fcrich","lat":47.3769,"lng":8.5417,"type":"city"},{"name":"Geneva","lat":46.2044,"lng":6.1432,"type":"city"},{"name":"Basel","lat":47.5596,"lng":7.5886,"type":"city"},{"name":"Jungfrau Region","lat":46.5,"lng":8.2,"type":"nature"}]},{"name":"Syria","wiki":"Syria","capital":[33.5138,36.2765],"locations":[{"name":"Palmyra","lat":34.55,"lng":38.27,"type":"nature"},{"name":"Aleppo","lat":36.2021,"lng":37.1343,"type":"former"},{"name":"Homs","lat":34.73,"lng":36.7237,"type":"city"},{"name":"Palmyra","lat":34.55,"lng":38.27,"type":"nature"}]},{"name":"S\u00e3o Tom\u00e9 and Pr\u00edncipe","wiki":"S\u00e3o_Tom\u00e9_and_Pr\u00edncipe","capital":[0.3365,6.7273],"locations":[]},{"name":"Taiwan","wiki":"Taiwan","capital":[25.033,121.5654],"locations":[{"name":"Yushan Mountain","lat":23.47,"lng":120.96,"type":"nature"},{"name":"Kaohsiung","lat":22.6163,"lng":120.3006,"type":"city"},{"name":"Taichung","lat":24.1372,"lng":120.6735,"type":"city"},{"name":"Yushan Mountain","lat":23.47,"lng":120.96,"type":"nature"}]},{"name":"Tajikistan","wiki":"Tajikistan","capital":[38.5598,68.787],"locations":[{"name":"Pamir Mountains","lat":37.0,"lng":72.0,"type":"nature"},{"name":"Khujand","lat":40.2864,"lng":69.6222,"type":"city"},{"name":"Pamir Mountains","lat":37.0,"lng":72.0,"type":"nature"}]},{"name":"Tanzania","wiki":"Tanzania","capital":[-6.163,35.7516],"locations":[{"name":"Mount Kilimanjaro","lat":-3.0,"lng":37.35,"type":"nature"},{"name":"Dar es Salaam","lat":-6.7924,"lng":39.2083,"type":"former"},{"name":"Moshi","lat":-3.3667,"lng":37.6667,"type":"city"},{"name":"Mount Kilimanjaro","lat":-3.0,"lng":37.35,"type":"nature"}]},{"name":"Thailand","wiki":"Thailand","capital":[13.7563,100.5018],"locations":[{"name":"Khao Yai National Park","lat":14.4,"lng":101.4,"type":"nature"},{"name":"Chiang Mai","lat":18.7883,"lng":98.9853,"type":"city"},{"name":"Phuket","lat":8.1128,"lng":98.2997,"type":"city"},{"name":"Sukhothai","lat":17.0125,"lng":99.8239,"type":"unicode"},{"name":"Khao Yai National Park","lat":14.4,"lng":101.4,"type":"nature"}]},{"name":"Timor-Leste","wiki":"East_Timor","capital":[-8.5569,125.5603],"locations":[{"name":"Mount Ramelau","lat":-9.0,"lng":124.5,"type":"nature"},{"name":"Mount Ramelau","lat":-9.0,"lng":124.5,"type":"nature"}]},{"name":"Togo","wiki":"Togo","capital":[6.1375,1.2123],"locations":[{"name":"Koutammakou Landscape","lat":10.2,"lng":1.2,"type":"nature"},{"name":"Koutammakou Landscape","lat":10.2,"lng":1.2,"type":"nature"}]},{"name":"Tonga","wiki":"Tonga","capital":[-21.1393,-175.2046],"locations":[{"name":"Vava'u Islands","lat":-18.6,"lng":-173.9,"type":"nature"},{"name":"Vava'u Islands","lat":-18.6,"lng":-173.9,"type":"nature"}]},{"name":"Trinidad and Tobago","wiki":"Trinidad_and_Tobago","capital":[10.6918,-61.2225],"locations":[{"name":"Asa Wright Nature Centre","lat":10.72,"lng":-61.24,"type":"nature"},{"name":"Asa Wright Nature Centre","lat":10.72,"lng":-61.24,"type":"nature"}]},{"name":"Tunisia","wiki":"Tunisia","capital":[36.819,10.1658],"locations":[{"name":"Ichkeul National Park","lat":37.2,"lng":9.1,"type":"nature"},{"name":"Sfax","lat":34.7406,"lng":10.7603,"type":"city"},{"name":"Sousse","lat":35.8256,"lng":10.6369,"type":"city"},{"name":"Ichkeul National Park","lat":37.2,"lng":9.1,"type":"nature"}]},{"name":"Turkey","wiki":"Turkey","capital":[39.9334,32.8597],"locations":[{"name":"Cappadocia","lat":38.7,"lng":34.6,"type":"nature"},{"name":"Istanbul","lat":41.0082,"lng":28.9784,"type":"city"},{"name":"\u0130zmir","lat":38.4161,"lng":27.1398,"type":"city"},{"name":"Bursa","lat":40.1955,"lng":29.0678,"type":"city"},{"name":"Cappadocia","lat":38.7,"lng":34.6,"type":"nature"}]},{"name":"Turkmenistan","wiki":"Turkmenistan","capital":[37.9601,58.3261],"locations":[{"name":"Turpan Depression","lat":40.5,"lng":62.0,"type":"nature"},{"name":"Turkmenabat","lat":37.1381,"lng":65.4169,"type":"city"},{"name":"Turpan Depression","lat":40.5,"lng":62.0,"type":"nature"}]},{"name":"Tuvalu","wiki":"Tuvalu","capital":[-8.52,179.198],"locations":[]},{"name":"Uganda","wiki":"Uganda","capital":[0.3476,32.5825],"locations":[{"name":"Rwenzori Mountains National Park","lat":0.4,"lng":30.0,"type":"nature"},{"name":"Gulu","lat":2.7734,"lng":32.2764,"type":"city"},{"name":"Rwenzori Mountains National Park","lat":0.4,"lng":30.0,"type":"nature"}]},{"name":"Ukraine","wiki":"Ukraine","capital":[50.4501,30.5234],"locations":[{"name":"Carpathian Mountains","lat":48.4,"lng":24.5,"type":"nature"},{"name":"Kharkiv","lat":49.9935,"lng":36.2304,"type":"city"},{"name":"Lviv","lat":49.8397,"lng":24.0297,"type":"city"},{"name":"Odesa","lat":46.4856,"lng":30.7326,"type":"city"},{"name":"Carpathian Mountains","lat":48.4,"lng":24.5,"type":"nature"}]},{"name":"United Arab Emirates","wiki":"United_Arab_Emirates","capital":[24.4539,54.3773],"locations":[{"name":"Hajar Mountains","lat":25.3,"lng":56.1,"type":"nature"},{"name":"Dubai","lat":25.2048,"lng":55.2708,"type":"city"},{"name":"Sharjah","lat":25.3463,"lng":55.4209,"type":"city"},{"name":"Hajar Mountains","lat":25.3,"lng":56.1,"type":"nature"}]},{"name":"United Kingdom","wiki":"United_Kingdom","capital":[51.5074,-0.1278],"locations":[{"name":"Lake District National Park","lat":54.5,"lng":-3.1,"type":"nature"},{"name":"Manchester","lat":53.4808,"lng":-2.2426,"type":"city"},{"name":"Birmingham","lat":52.5086,"lng":-1.8783,"type":"city"},{"name":"Leeds","lat":53.8008,"lng":-1.5491,"type":"city"},{"name":"Lake District National Park","lat":54.5,"lng":-3.1,"type":"nature"}]},{"name":"United States","wiki":"United_States","capital":[38.9072,-77.0369],"locations":[{"name":"Yellowstone National Park","lat":44.7,"lng":-110.5,"type":"nature"},{"name":"New York City","lat":40.7128,"lng":-74.006,"type":"city"},{"name":"Los Angeles","lat":34.0522,"lng":-118.2437,"type":"city"},{"name":"Chicago","lat":41.8781,"lng":-87.6298,"type":"city"},{"name":"Houston","lat":29.7604,"lng":-95.3698,"type":"city"},{"name":"Yellowstone National Park","lat":44.7,"lng":-110.5,"type":"nature"}]},{"name":"Uruguay","wiki":"Uruguay","capital":[-34.9011,-56.1915],"locations":[{"name":"Esteros de Ibera","lat":-28.3,"lng":-57.2,"type":"nature"},{"name":"Salto","lat":-31.3873,"lng":-57.9683,"type":"city"},{"name":"Esteros de Ibera","lat":-28.3,"lng":-57.2,"type":"nature"}]},{"name":"Uzbekistan","wiki":"Uzbekistan","capital":[41.2995,69.2401],"locations":[{"name":"Nuratau Mountains","lat":40.8,"lng":65.4,"type":"nature"},{"name":"Samarkand","lat":39.6547,"lng":66.9758,"type":"city"},{"name":"Bukhara","lat":39.7681,"lng":64.4272,"type":"unicode"},{"name":"Nuratau Mountains","lat":40.8,"lng":65.4,"type":"nature"}]},{"name":"Vanuatu","wiki":"Vanuatu","capital":[-17.7333,168.3167],"locations":[{"name":"Mount Yasur","lat":-19.52,"lng":169.44,"type":"nature"},{"name":"Mount Yasur","lat":-19.52,"lng":169.44,"type":"nature"}]},{"name":"Venezuela","wiki":"Venezuela","capital":[10.4806,-66.9036],"locations":[{"name":"Angel Falls","lat":5.97,"lng":-62.58,"type":"nature"},{"name":"Maracaibo","lat":10.6666,"lng":-71.6124,"type":"city"},{"name":"Valencia","lat":10.162,"lng":-67.9999,"type":"city"},{"name":"Angel Falls","lat":5.97,"lng":-62.58,"type":"nature"}]},{"name":"Vietnam","wiki":"Vietnam","capital":[21.0285,105.8542],"locations":[{"name":"Ha Long Bay","lat":20.84,"lng":107.1,"type":"nature"},{"name":"Ho Chi Minh City","lat":10.8231,"lng":106.6297,"type":"former"},{"name":"Hai Phong","lat":20.8449,"lng":106.6836,"type":"city"},{"name":"H\u1ed9i An","lat":15.8794,"lng":108.335,"type":"unicode"},{"name":"Ha Long Bay","lat":20.84,"lng":107.1,"type":"nature"}]},{"name":"Yemen","wiki":"Yemen","capital":[15.3527,48.5164],"locations":[{"name":"Socotra Island","lat":12.5,"lng":54.0,"type":"nature"},{"name":"Aden","lat":12.7797,"lng":45.0367,"type":"former"},{"name":"Taiz","lat":13.58,"lng":44.0077,"type":"city"},{"name":"Socotra Island","lat":12.5,"lng":54.0,"type":"nature"}]},{"name":"Zambia","wiki":"Zambia","capital":[-15.3875,28.3228],"locations":[{"name":"Victoria Falls","lat":-17.93,"lng":25.86,"type":"nature"},{"name":"Kitwe","lat":-12.8183,"lng":28.2559,"type":"city"},{"name":"Victoria Falls","lat":-17.93,"lng":25.86,"type":"nature"}]},{"name":"Zimbabwe","wiki":"Zimbabwe","capital":[-17.8252,31.0335],"locations":[{"name":"Hwange National Park","lat":-18.5,"lng":26.5,"type":"nature"},{"name":"Bulawayo","lat":-20.1325,"lng":28.6264,"type":"city"},{"name":"Hwange National Park","lat":-18.5,"lng":26.5,"type":"nature"}]}]}